[
	{
		"title":"Reproductores Cobb S.A.", 
		"lat":-34.5996655, 
		"lng":-58.3868244, 
		"img":"reproductores_cobbSA.jpg", 
		"category":"distributor",
		"address":"R. Uruguay 772 4 Piso, 1015 Buenos Aires, Argentina",
		"tel":"+54 9 114 373 80884",
		"district":"south-america",
		"email":"gen@reproductorescobb.com.ar",
		"fax":" +54 9 114 373 80802",
		"sales":"Hugo Salomone",
		"tech":"Roberto Ricanho"
	},
	{
		"title":"Agrogen Desenvolvimento Genético Ltda", 
		"lat":-29.8172031, 
		"lng":-51.1596823, 
		"img":"agrogen_logo.jpg", 
		"category":"producer",
		"address":"Rodovia RS 124 – Km 2, Bairro: Estacão – PO Box: 201, Montenegro – Rio Grande do Sul, RS CEP, Brazil",
		"tel":"+55 51 3883 2100",
		"district":"south-america",
		"email":"agrogen@agrogen.com.br",
		"website":"www.agrogen.com.br"
	},
	{
		"title":"Cobb-Vantress, Incorporated", 
		"lat":36.1811783, 
		"lng":-94.4927894, 
		"img":"cobb_logo.png", 
		"category":"cobb",
		"address":"4703 US Hwy 412 E., Siloam Springs, Arkansas, USA",
		"tel":"+1 (479) 524-3166",
		"district":"north-america",
		"email":"info@cobb-vantress.com",
		"website":"www.cobb-vantress.com",
		"fax":"+1 (479) 524-3043"
	},
	{
		"title":"Cobb Caribe", 
		"lat":19.466667, 
		"lng":-70.7, 
		"img":"cobb_caribe_logo.jpg", 
		"category":"distributor",
		"address":"Avenida Rafael Vidal, El Embrujo, I, Edificio Galerias DC4, 2do Nivel, Mod #4, Santiago de los Caballeros, Dominican Republic",
		"tel":"(809) 583-3934",
		"district":"north-america",
		"email":" Cobb_Caribe@yahoo.com",
		"fax":" (809) 581-8342",
		"sales":"angel-soto2006@hotmail.com",
		"tech":"raulrojasch@yahoo.com"

	},
	{
		"title":"Buenaventura Grupo Pecuario", 
		"lat":19.8420762, 
		"lng":-90.5439154, 
		"img":"buenaventura-biomaster_logo.jpg", 
		"category":"distributor",
		"address":"Calle 10 no. 306, Col. San Roman, Campeche, Mexico",
		"tel":" +52 981 81 13025",
		"district":"north-america"
		
	},
	{
		"title":"Asa Alimentos Ltda SIA", 
		"lat":-15.802813, 
		"lng":-47.9611669, 
		"img":"asalogo.jpg", 
		"category":"producer",
		"address":"Trecho 3 Lote 385/395, CEP 71200-030, Brasilia-DF, Brazil",
		"tel":"+55 61 2106 3733",
		"district":"south-america",
		"email":"asaalimentos@asaalimentos.com.br",
		"fax":"+55 61 2106 3777",
		"website":"www.asaalimentos.com.br"
	},
	{
		"title":"Cobb EMEA",
		"category":"cobb",
		"district":"EMEA", 
		"address":"The Oaks Apex 12, Old Ipswitch Road Colchester, Essex, England",
		"lat":51.895927, 
		"lng":0.891874, 
		"img":"cobb_logo.png", 
		"website":"www.cobb-vantress.com",
		"tel":"+44 (1206) 835835",
		"email":" info@cobb-europe.com"
				
	},
	{
		"title":"Cobb Germany Avimex GmbH",
		"category":"distributor",
		"district":"EMEA", 
		"address":"Peter-Henlein Str. 1, Regenstauf, Germany",
		"lat":49.10851, 
		"lng":12.11762, 
		"img":"cobb_logo.png", 
		"website":"Cobb-Germany.com",
		"tel":"+44 (1206) 835835",
		"email":"Info@Cobb-Germany.com"		
	},
	{
		"title":"Blenta AB",
		"category":"distributor",
		"district":"EMEA", 
		"address":"Blentarp, Sweden",
		"lat":55.5821258, 
		"lng":13.5995903, 
		"img":"blentaab.jpeg", 
		"website":" www.blenta.se",
		"tel":"+46 416 26602",
		"fax":" +46 416 13115",
		"email":"jp@blenta.se"		
	},
	{
		"title":"Halim & Company Ltd.",
		"category":"producer",
		"district":"asia", 
		"address":"13 – 14 Euranyang-Ri, Mangsung- Myun, Iksan-City, Jeonbuk, Korea",
		"lat":35.9482858, 
		"lng":126.9575991, 
		"img":"halim.jpeg",  
		"website":"www.halim.com",
		"tel":"+82-63-835-4605",
		"fax":" +82 653 861 5525",
		"email":"postmaster@cobb-matsusaka.co.jp"		
	},
	{
		"title":"Leong Hup Holdings Bhd.",
		"category":"distributor",
		"district":"asia", 
		"address":"No.201-203, Jalan Abdullah, Muar, Johor, Malaysia",
		"lat":2.048981, 
		"lng":102.569353, 
		"img":"leonghup.jpeg",  
		"website":"www.lhhb.com",
		"tel":" +606 951 9992",
		"fax":" +606 952 4882",
		"email":"limmb@pc.jaring.my"	
	},
	{
		"title":"BRF - Brasil Foods",
		"category":"producer",
		"district":"south-america", 
		"address":"Rua Saul Brandalise, 39, CEP 89560-000, Videria - SC, Brazil",
		"lat":-27.242339, 
		"lng":-50.218856, 
		"img":"brf_logo.jpg",  
		"website":"www.brasilfoods.com",
		"tel":"+55 49 3533 9966",
		"fax":"+55 49 3566 18522",
		"email":"Francisco.bersch@brasilfoods.com"	
	},
		{
		"title":"Cobb-Vantress Brasil",
		"category":"cobb",
		"district":"south-america", 
		"address":"Rodovia Assis Chateaubriant, Km 10, CEP 15110-970, Guapiacu - (SP), Brazil",
		"lat":-20.796357, 
		"lng":-49.217660, 
		"img":"cobb_logo.png",  
		"website":"www.cobb-vantress.com",
		"tel":"+55 17 3267 9999",
		"fax":"+54 9 114 373 80802",
		"email":"cobb.info@cobb-vantress.com.br"	
	},
	{
		"title":"JBS Frangos",
		"category":"producer",
		"district":"south-america", 
		"address":"Estrada Buarque de Macedo, 3620, CEP 95780-00, Montenegro - RS, Brazil",
		"lat":-29.682913, 
		"lng":-51.468415, 
		"img":"jbs_logo.jpg",  
		"website":"www.doux.com",
		"tel":"+55 51 3632 0500",
		"fax":"+55 51 3632 0500",
		"email":"business@frangosul.com.br"	
	},
	{
		"title":"Marfrig",
		"category":"producer",
		"district":"south-america", 
		"address":"Rau Chedid Jafet, 222, Bloco A-5 andar. Ed., Milennium CEP 04551-065 - Vila Olimpia, Sao Paulo-SP, Brazil",
		"lat":-23.590922, 
		"lng":-46.688669, 
		"img":"marfrig-group.gif",  
		"website":"www.mafrfig.com.br",
		"tel":"+55 11 3728 8600",
		"fax":"+55 11 3728 8600",
		"email":"seara.atende@seara.com.br"	
	},
	{
		"title":"Agricola Ariztia",
		"category":"distributor",
		"district":"south-america", 
		"address":"Los Carrera 444 Casilla 90, Melipilla, Chile",
		"lat":-33.686159, 
		"lng":-71.216684, 
		"img":"ariztia_logo.jpg",  
		"website":"www.ariztia.com",
		"tel":"+56 2 637 8000",
		"fax":"+56 2 637 8001",
		"email":"eariztia@ariztia.com"	
	},
	{
		"title":"Agrosuper Agricola Super Ltda",
		"category":"distributor",
		"district":"south-america", 
		"address":"Camino La Estrella, 401/Sector Punta de Cortes, Rancagua, Chile",
		"lat":-34.166667, 
		"lng":-70.850000, 
		"img":"agrosuper_logo.jpg",  
		"website":"www.agrosuper.cl",
		"tel":"56-072-201000",
		"fax":"56-072-201000",
		"email":"fortiz@agrosuper.com"	
	},
	{
		"title":"Incubacol Bogota, Colombia",
		"category":"distributor",
		"district":"south-america", 
		"address":"Colombiana de Incubacion S.A., Calle 37, No. 14-60, Santafe de Bogota, D.C., Colombia",
		"lat":4.598100, 
		"lng":-73.076030, 
		"img":"incubacol_logo.jpg",  
		"website":"www.incubacol.com.co",
		"tel":"+57 1 338 2655",
		"fax":"+57 1 338 4992",
		"email":"incubacol@incubacol.com.co"	
	},
	{
		"title":"Agroavicola San Marino S.A.",
		"category":"distributor",
		"district":"south-america", 
		"address":"NIT 830.016.868-7, Calle 94A No. 11A-73, Bogota, Columbia",
		"lat":4.598056, 
		"lng":-74.075833, 
		"img":"sanmarino_logo.jpg",  
		"tel":"+57 1 623-64-53",
		"fax":"+57 1 634-99-63",
		"email":"grupoavicola@gmail.com"	
	},
	{
		"title":"Avex",
		"category":"distributor",
		"district":"south-america", 
		"address":"Jr.Juno 147, Lima, Peru",
		"lat":-12.046374, 
		"lng":-77.042793, 
		"img":"avex-ok_sm.jpg",  
		"tel":"+51 1 221 4380",
		"fax":"+51 1 221 4380",
		"email":"grupoavicola@gmail.com"	
	},
	{
		"title":"San Fernando",
		"category":"distributor",
		"district":"south-america", 
		"address":"Ave. Republica de Panama 4295, Surquillo, Lima, Peru",
		"lat":-12.107742, 
		"lng":-77.018540, 
		"img":"sanfernando_logo.jpg",  
		"tel":"+51 1 243 5300",
		"fax":"+51 1 446 2088",
		"website":"www.san-fernando.com.pe",
		"email":"informes@san-fernando.com.pe"	
	},
	{
		"title":"Proavica C.A.",
		"category":"distributor",
		"district":"south-america", 
		"address":"Zona Industrial Sur, Valencia Edo. Carabobo, Venezuela",
		"lat":10.226748, 
		"lng":-68.025456, 
		"img":"proavica_logo.jpg",  
		"tel":"+58 245 415 4130",
		"fax":"+58 241 613 8018",
		"email":"proavicabelen@protinal.com.ve"	
	},
	{
		"title":"Matsusaka Farm Company, Ltd.",
		"category":"cobb",
		"district":"asia", 
		"address":"119-7 Saekinaka, Taki-Cho, Taki-Gun, Mie, Japan",
		"lat":34.5019544, 
		"lng":136.5196013, 
		"img":"cobb_logo.png",  
		"tel":"+81 598 38 7330",
		"fax":"+81 598 38 2330",
		"email":"postmaster@cobb-matsusaka.co.jp"	
	},
	{
		"title":"CP Malaysia",
		"category":"distributor",
		"district":"asia", 
		"address":"Lot 4, Lingkaran Lultan Hishamuddin, Kawasan 20, Selat Klang Utara, Port Klang, Selangor Darul Ehsan, Malaysia",
		"lat":4.210484, 
		"lng":101.975766, 
		"img":"cpmalaysia.jpeg",  
		"tel":"603 32906585",
		"fax":"603 32906587",
		"email":"pokphand@tm.net.my"	
	},
	{
		"title":"Phil Malay Breeders Inc.",
		"category":"distributor",
		"district":"asia", 
		"address":"No. 601-611 Landsdale Tower, Mother Ignacia Ave, cor Timog Ave, Quezon City, Philippines",
		"lat":14.633883, 
		"lng":121.039586, 
		"img":"philmalay.jpeg",  
		"tel":"+623-371-1334/5",
		"fax":"00-632-371-1334",
		"email":"vpmpbi@i-manila.com.ph",
		"website":"www.ihhb.com/pm_pb.asp"	
	},
	{
		"title":"Gama Foods",
		"category":"producer",
		"district":"asia", 
		"address":"#12 Zone 3, Kauswagan Road, Cagayan de Oro City, Philippines",
		"lat":8.498704, 
		"lng":124.627833, 
		"img":"gamafoods.jpeg",  
		"tel":"+63 88 350 5695",
		"fax":"+63 88 858 7709"
	},
	{
		"title":"Bounty Agro-Ventures",
		"category":"producer",
		"district":"asia", 
		"address":"179 Marlano Pnce St., Coloocan City, Philippines",
		"lat":12.879721, 
		"lng":121.774017, 
		"img":"bountyfresh.jpeg",  
		"tel":"+632 366 0616 Loc113",
		"fax":"+632 364 2362, 361 5726"	
	},
	{
		"title":"San Miguel Foods Inc.",
		"category":"producer",
		"district":"asia", 
		"address":"23rd Floor JMT Corporate Condominium, ADB Avenue, Ortigas Center, Pasig City, Philippines",
		"lat":14.585383, 
		"lng":121.060294, 
		"img":"sanmiguel.jpeg",  
		"tel":"+632 702-5000",
		"website":"www.sanmiguel.com.ph"	
	},
	{
		"title":"Universal Robina Corp.",
		"category":"distributor",
		"district":"asia", 
		"address":"Litton Mills Compound, Amang Rodriguez Ave, Pasig City, Rosario, Philippines",
		"lat":14.593674, 
		"lng":121.087634, 
		"img":"universalrobina.jpeg",  
		"tel":"+632 641 4275",
		"fax":"+632 395 1200 222",
		"email":"cpmpbi@i-manila.com.ph",
		"website":"http://robinaagripartners.com"	
	},
	{
		"title":"Cobb-Vantress Philippines Inc.",
		"category":"cobb",
		"district":"asia", 
		"address":"Penthouse Flr., Joroma Two Bldg. 47 Congressional Avenue, Quezon City, Philippines",
		"lat":14.665860, 
		"lng":121.031019, 
		"img":"cobb_logo.png",  
		"tel":"+63 2 454 2147",
		"fax":"+63 2 709 9810",
		"email":"info@cobb-vantress.com",
		"website":"www.cobb-vantress.com"	
	},
	{
		"title":"PT Hybro Indonesia",
		"category":"distributor",
		"district":"asia", 
		"address":"Jl. Pintu Keil No. 38-42, Lt 2 & 3, Jakarta, Indonesia",
		"lat":-6.208763, 
		"lng":106.845599, 
		"img":"pthybro.jpeg",  
		"tel":"+62 21 6925500 (Hunting)",
		"fax":"+62 21 6925492"
	},
	{
		"title":"CV Missouri",
		"category":"distributor",
		"district":"asia", 
		"address":"53 Malabar, Bandung, Indonesia",
		"lat":-6.923764, 
		"lng":107.624343, 
		"img":"cvmissouri.jpeg",  
		"tel":"+62 22 305323",
		"fax":"+62 22 303715",
		"email":"missouripoultry@yahoo.co.id"	
	},
	{
		"title":"PT Wonokoyo",
		"category":"distributor",
		"district":"asia", 
		"address":"Jl. Taman Bunkul 1 - 7, Surabaya, Indonesia",
		"lat":-7.264240, 
		"lng":112.745579, 
		"img":"wonokoyo.jpeg",  
		"tel":"62-(031)-295-6000",
		"fax":"62-(031)-567-9655",
		"email":"infoweb@wonokoyo.co.id",
		"website":"www.wonokoyo.co.id"	
	},
	{
		"title":"CP Indonesia",
		"category":"distributor",
		"district":"asia", 
		"address":"Ancol Barat, Jl. Ancol VIII / No.1, Jakarta, Indonesia",
		"lat":-6.118472, 
		"lng":106.822552, 
		"img":"cpindonesia.jpeg",  
		"tel":"+62 21 691 9999",
		"fax":"+62 21 690 7324",
		"website":"cp.co.id"	
	},
	{
		"title":"PT Bibit",
		"category":"distributor",
		"district":"asia", 
		"address":"Kompleks Golden Plaza Blok G No. 21-22, Jl. Fatmawati No. 15, Jakarta, Indonesia",
		"lat":-6.284497, 
		"lng":106.804114, 
		"img":"ptbibit.jpeg",  
		"tel":"62-21 7661727",
		"fax":"62-21 7661728",
		"email":"leongjkt@cbn.net.id",
		"website":"www.lhhb.com/ptleong_a1.asp"	
	},
	{
		"title":"PT. Reza Perkasa",
		"category":"distributor",
		"district":"asia", 
		"address":"Delta Sari Indah Bo-8 Waru Sidoarjo, East Java, 61256",
		"lat":-7.361788, 
		"lng":112.734579, 
		"img":"reza_perkasa.jpg",
		"tel":"+62-31 8538446"
	},
	{
		"title":"Saha Farms Company, Ltd.",
		"category":"distributor",
		"district":"asia", 
		"address":"44/4 Sukhapibal 1 Rd. Kannayaw, Bangkapi, Bangkok, Thailand",
		"lat":13.727896, 
		"lng":100.524123, 
		"img":"sahafarms.gif",  
		"tel":"+66 2 510 0051",
		"fax":"+66 2 510 1586",
		"website":"www.sahafarms.com"	
	},
	{
		"title":"GFPT Public Co.",
		"category":"distributor",
		"district":"asia", 
		"address":"GFPT Tower, 118 Moo 4, Rama II Road, Bangmod, Bangkok, Thailand",
		"lat":13.727896, 
		"lng":100.524123, 
		"img":"gfptpublic.jpeg",  
		"tel":"662 468 9922",
		"fax":"662 468 1198",
		"email":"enquiry@gfpt.co.th",
		"website":"www.gfpt.co.th"	
	},
	{
		"title":"CP Foods",
		"category":"distributor",
		"district":"asia", 
		"address":"313 C.P. Tower, Silom Road, Bangkok, Bangrak, Thailand",
		"lat":13.725861, 
		"lng":100.526639, 
		"img":"cpfoods.jpeg",  
		"tel":"662 675 8800",
		"fax":"662 673 1150",
		"email":"pr@cpthailand.com",
		"website":"www.cpthailand.com"	
	},
	{
		"title":"BPBC",
		"category":"distributor",
		"district":"asia", 
		"address":"D7 Jianxiang Villa, Jia 1 Huayanbeili, Beijing, Chaoyang District, China",
		"lat":39.877848, 
		"lng":116.472045, 
		"img":"bpbc.jpeg",  
		"tel":"8610 620511469-8012",
		"fax":"8610 62049594"
	},
	{
		"title":"K &amp; N's",
		"category":"distributor",
		"district":"asia", 
		"address":"160 Banglore Town, Shara-e-Faisal, Karachi, Pakistan",
		"lat":24.876273, 
		"lng":67.079086, 
		"img":"kandn.jpeg",  
		"tel":"+92-21-4533623",
		"email":"contact@KandNs.com",
		"website":"www.kandns.com"	
	},
	{
		"title":"Kazi Farms Group",
		"category":"distributor",
		"district":"asia", 
		"address":"84 Dhanmandi Road 7A, 4th Floor, Dhaka, Bangladesh",
		"lat":23.745192, 
		"lng":90.383406, 
		"img":"kazifarmsgroup.jpeg",  
		"tel":"880 2 9123432",
		"fax":"880 2 9122842",
		"email":"info@kazifarms.com",
		"website":"www.kazifarms.com"	
	},
	{
		"title":"CP Bangladesh",
		"category":"producer",
		"district":"asia", 
		"address":"House 28, Aloal Road Sector 6, Dhaka, Uttara, Bangladesh",
		"lat":23.871331, 
		"lng":90.404272, 
		"img":"cp-bangladesh-group-logo.png",  
		"tel":"+88 02 8919479",
		"fax":"+88 02 8919103",
		"email":"training@cpbangladesh.com",
		"website":"www.cpbangladesh.com"	
	},
	{
		"title":"Kasila (Bangladesh) Limited",
		"category":"distributor",
		"district":"asia", 
		"address":"177, Khatunganj, Chittagong-4000, Bangladesh",
		"lat":22.334837, 
		"lng":91.836520, 
		"img":"agha_breeder_logo.jpeg",  
		"tel":"+800 31 682930 / 31",
		"fax":"+880 31 681608",
		"email":"mmagha@dominox.com"
	},
	{
		"title":"Nourish Poultry",
		"category":"distributor",
		"district":"asia", 
		"address":"Genetic Plaza House No. 404 (2nd floor) Road No. 27 (old), Dhanmondi C/A Dhaka - 1209, Bangladesh",
		"lat":23.684994, 
		"lng":90.356331, 
		"img":"norish.png",  
		"tel":"+88-01711-590389",
		"email":"nourish_ho@yahoo.com"
	},
	{
		"title":"Taiwan Chunky",
		"category":"distributor",
		"district":"asia", 
		"address":"No. 285. Sec. 3, Min-Fu Road, Yang Mei, Taoyuan, Taiwan",
		"lat":24.998525, 
		"lng":121.308369, 
		"img":"taiwanchunky.jpeg",  
		"tel":"+886 3 472 3800",
		"fax":"+886 3 472 3801"
	},
	{
		"title":"Venco Research and Breeding Farm",
		"category":"distributor",
		"district":"asia", 
		"address":"Venkateshwara House, S. No. 114/A/2, Pune-Sinhagad Road, Pune, India",
		"lat":18.464180, 
		"lng":73.815423, 
		"img":"vencoresearch.jpeg",  
		"tel":"+91 20 433 2265",
		"fax":"+91 020 24251077, 24251060",
		"email":"venkys-ip@eth.net"
	},
	{
		"title":"Riverland Poultry, Ltd.",
		"category":"distributor",
		"district":"asia", 
		"address":"P.O. Box 100 (River Road), Tuakau, New Zealand",
		"lat":-37.287780, 
		"lng":174.941577, 
		"img":"riverlandpoultry.jpeg",  
		"tel":"+64 9 236 8925",
		"fax":"+64 9 236 8830",
		"email":"rpl@bromley.co.nz"
	},
	{
		"title":"Fortune G-P Farms (Lanka) LTD",
		"category":"distributor",
		"district":"asia", 
		"address":"C/O Bairaha Farms PLC 2nd Floor, 407, Galle Road, Colombo 03, Sri Lanka",
		"lat":6.905874, 
		"lng":79.851453, 
		"img":"fortuneg-p.jpeg",  
		"tel":"+94 11 2 573055",
		"fax":"+94 11 2 575256",
		"email":"bairaha@cga.lk"
	},
	{
		"title":"CP Myanmar",
		"category":"producer",
		"district":"asia", 
		"address":"135 Pyay Road, 8 1/2 Mile Mayangone Township, Yangon, Myanmar",
		"lat":16.800000, 
		"lng":96.150000, 
		"img":"myanmar-cp-livestock-logo.jpg",  
		"tel":"951-660546, 951 660320",
		"fax":"951-66710"
	},
	{
		"title":"Hichick Breeding Company Pty, Ltd.",
		"category":"distributor",
		"district":"asia", 
		"address":"P.O. Box 821, Gawler, South Australia",
		"lat":-34.599540, 
		"lng":138.749141, 
		"img":"hichick.jpeg",  
		"tel":"+61 885 66 2955",
		"fax":"+61 885 66 3123"
	},
	{
		"title":"Baiada Poultry",
		"category":"distributor",
		"district":"asia", 
		"address":"m642 Great Western Highway,Pendle Hill, NSW 2145, Australia",
		"lat":-33.811580, 
		"lng":150.952334, 
		"tel":"m61- (02) 9842- 1120",
		"fax":"61 (02) 9896-5724"
	},
	{
		"title":"Laemthong Poultry Co., Ltd.",
		"category":"producer",
		"district":"asia", 
		"address":"Thailand",
		"lat":15.870032,
		"lng":101.492541, 
		"img":"ltc-logo.jpg",  
		"tel":"+662 2553777",
		"fax":"+662 2558656",
		"email":"info@laemthong.com",
		"website":"www.laemthong.com"
	},
	{
		"title":"Cobb Asia/Pacific",
		"category":"cobb",
		"district":"asia", 
		"address":"Thailand",
		"lat":15.450032, 
		"lng":100.53353, 
		"img":"cobb_logo.png",  
		"tel":"+662 2553777",
		"email":"info@cobb-vantress.com",
		"website":"www.cobb-vantress.com"
	},
	{
		"title":"PT Taat Indah Bersinar",
		"category":"distributor",
		"district":"asia", 
		"address":"Indonesia",
		"lat":-0.789275, 
		"lng":113.921327, 
		"img":"pt_bersinar.png"
	},
	{
		"title":"Hybrid Poultry Ltd",
		"category":"distributor",
		"district":"EMEA",
		"address":"Chamba Valley Chelston, Box 310097, Lusaka, Zambia",
		"lat":-15.416667, 
		"lng":28.283333, 
		"img":"hybridpoultry.jpeg",
		"tel":"+260 128 2734",
		"fax":"+260 128 2741",
		"email":"hybrid@zamnet.zm"
	},
	{
		"title":"El Kenana",
		"category":"distributor",
		"district":"EMEA",
		"address":"10 Moayia Street, Tanta, Egypt",
		"lat":30.781569, 
		"lng":30.997480, 
		"img":"elkenana.jpeg",
		"tel":"+20 2 762 37 7173",
		"fax":"+20 2 760 1735",
		"email":"fathens@menanet.net",
		"website":"www.fathens.com"
	},
	{
		"title":"Broiler Budushego",
		"category":"producer",
		"district":"EMEA",
		"address":"Russia,142436,Moscow region, Noginskiy district, selo Stromyn",
		"lat":56.041275, 
		"lng":38.482634, 
		"img":"bb-logo.jpg",
		"tel":"+7 (496) 524 9384"
	},
	{
		"title":"Akashevskaya",
		"category":"producer",
		"district":"EMEA",
		"address":"Russia,424000, Republic of Mariy El, Yoshkar-Ola town, str. Stroiteley , 32",
		"lat":56.639313, 
		"lng":47.830517, 
		"img":"akashevo-logo.jpg",
		"fax":"+7 (83638) 9-44-30",
		"email":"info@akashevo.ru"
	},
	{
		"title":"Cobb Egypt",
		"category":"distributor",
		"district":"EMEA",
		"address":"6th of October City, Tourist Area Villa 16, Giza, Cairo, Egypt",
		"lat":30.044420, 
		"lng":31.235712,
		"img":"cobb-egypt.jpeg", 
		"tel":"+202 3836 7365",
		"fax":"+202 3836 4536",
		"email":"cobb-egy@alwatania-egy.com"
	},
	{
		"title":"Y. Brown and Sons Ltd.",
		"category":"distributor",
		"district":"EMEA",
		"address":"P.O. Box 23, Hod-Hasharon, Israel",
		"lat":32.149961, 
		"lng":34.883879,
		"img":"ybrown.jpeg", 
		"tel":"+972 9 7406206",
		"fax":"+972 9 7405321",
		"email":"brown@y-brown.co.il"
	},
	{
		"title":"Cobb South Africa",
		"category":"distributor",
		"district":"EMEA",
		"address":"P.O. Box 2734, Westway Office Park, Westville, South Africa",
		"lat":-29.853600, 
		"lng":30.934840,
		"img":"cobb-southafrica.jpeg", 
		"tel":"+27 178 432 548",
		"fax":"+27 178 432 163",
		"email":"info@cobbsa.co.za",
		"website":"www.cobbsa.co.za"
	},
	{
		"title":"Cobb Espa&ntilde;ola SA",
		"category":"distributor",
		"district":"EMEA",
		"address":"Apartado do Correos 97, 28880 Alcalá de Henares, Madrid, Spain",
		"lat":40.481979, 
		"lng":-3.363542,
		"img":"cobb-spain.jpeg", 
		"tel":"+34 91 889 2172",
		"fax":"+34 91 889 4038"
	},
	{
		"title":"Cobb Africa",
		"category":"distributor",
		"district":"EMEA",
		"address":"Unit 78 Studio Office Park 5 Concourse Crescent, Lonehill, Johannesburg, 2191 P.O. Box 2337 Lonehill, 2062, South Africa",
		"lat":-26.032993, 
		"lng":28.012113,
		"img":"cobb_africa.jpg", 
		"tel":"+27 (11) 465 9497",
		"fax":"+27 (11) 465 5919",
		"email":"patrick@cobbafrica.com",
		"website":"www.cobbafrica.com"
	},
	{
		"title":"Cobb Turkey",
		"category":"distributor",
		"district":"EMEA",
		"address":"Bandirma – Karacabey Asfalti 14.km 10200 Bandirma – Balikesir Turkey",
		"lat":40.359460, 
		"lng":27.979227,
		"img":"cobb_turkey.jpg", 
		"tel":"+90 266 743 94 00",
		"fax":"+90 266 743 94 04",
		"email":"derya.guneysu@cobb-europe.com",
		"website":"www.cobb-vantress.com"
	},
	{
		"title":"Quantum Foods",
		"category":"distributor",
		"district":"EMEA",
		"address":"Klipheuwel Road, Durbanville, South Africa",
		"lat":-33.832500, 
		"lng":18.647500,
		"img":"quantum-foods.png", 
		"tel":"+27 21 970 5400",
		"website":"www.quantumfoods.com"
	},
	{
		"title":"Cobb Arabia",
		"category":"distributor",
		"district":"EMEA",
		"address":"Saudi Arabia",
		"lat":23.885942, 
		"lng":45.079162
	}

]	
